$GPGGA,030000.00,3947.2393712,N,11634.0522906,E,1,36,0.5,30.202,M,-7.585,M,,*43
$PSAT,FVI,030000.00,39.787322854,116.567538177,22.617,0.661,0.795,1.473,,,-0.037,0.510,0.12,0.51,0.00,-0.01,0.04,0.01,,,,50N,462970.856,4404242.000,36,00,1,0,,*15
$GPGST,030000.00,2.000,0.807,0.646,73.142,0.661,0.795,1.473*65
$PSAT,RTKSTAT,AUT,NONE,0,0564,0,(,L1,L2,L2C,L5,G1,G2,B1,B2,B3,B1C,B2A,B2B,B2AB,E1B,E5A,E5B,E5AB,E6,QL1,QL2,QL5,IL5,)(,8,7,7,5,5,4,13,6,12,5,5,6,0,5,5,5,0,0,3,3,0,2,)(,C,A,A,A,A,A,A,A,A,A,A,A,A,A,A,A,B,A,C,A,A,D,),48,0,1.034,027,0*6C
$GPGGA,030000.10,3947.2393741,N,11634.0522906,E,1,36,0.5,30.186,M,-7.585,M,,*4B
$PSAT,FVI,030000.10,39.787322902,116.567538176,22.601,0.661,0.795,1.473,,,-0.006,0.513,0.17,0.51,0.03,-0.03,-0.04,0.04,,,,50N,462970.855,4404242.005,36,00,1,0,,*3B
$GPGST,030000.10,2.000,0.807,0.646,73.142,0.661,0.795,1.473*64
$GPGGA,030000.20,3947.2393764,N,11634.0522896,E,1,36,0.5,30.172,M,-7.585,M,,*4C
$PSAT,FVI,030000.20,39.787322940,116.567538161,22.587,0.661,0.795,1.473,,,-0.006,0.504,0.18,0.50,0.03,0.00,0.00,0.03,,,,50N,462970.854,4404242.009,36,00,1,0,,*30
$GPGST,030000.20,2.000,0.807,0.646,73.142,0.661,0.795,1.473*67
$GPGGA,030000.30,3947.2393792,N,11634.0522891,E,1,36,0.5,30.156,M,-7.585,M,,*45
$PSAT,FVI,030000.30,39.787322986,116.567538152,22.571,0.661,0.795,1.473,,,-0.037,0.509,0.14,0.51,-0.00,-0.00,-0.03,0.00,,,,50N,462970.853,4404242.014,36,00,1,0,,*15
$GPGST,030000.30,2.000,0.807,0.646,73.142,0.661,0.795,1.473*66
$GPGGA,030000.40,3947.2393818,N,11634.0522889,E,1,36,0.5,30.143,M,-7.585,M,,*42
$PSAT,FVI,030000.40,39.787323031,116.567538149,22.558,0.661,0.795,1.473,,,-0.068,0.505,0.13,0.50,-0.00,0.00,-0.01,0.00,,,,50N,462970.853,4404242.019,36,00,1,0,,*35
$GPGST,030000.40,2.000,0.807,0.646,73.142,0.661,0.795,1.473*61
$GPGGA,030000.50,3947.2393844,N,11634.0522882,E,1,36,0.5,30.128,M,-7.585,M,,*4C
$PSAT,FVI,030000.50,39.787323073,116.567538137,22.543,0.661,0.795,1.473,,,-0.061,0.506,0.13,0.51,0.03,0.01,-0.02,0.03,,,,50N,462970.852,4404242.024,36,00,1,0,,*1A
$GPGST,030000.50,2.000,0.807,0.646,73.142,0.661,0.795,1.473*60
$GPGGA,030000.60,3947.2393870,N,11634.0522880,E,1,36,0.5,30.115,M,-7.585,M,,*44
$PSAT,FVI,030000.60,39.787323116,116.567538134,22.530,0.661,0.795,1.473,,,-0.025,0.510,0.15,0.51,-0.01,-0.00,0.04,0.01,,,,50N,462970.852,4404242.029,36,00,1,0,,*3A
$GPGST,030000.60,2.000,0.807,0.646,73.161,0.661,0.795,1.473*62
$GPGGA,030000.70,3947.2393899,N,11634.0522878,E,1,36,0.5,30.099,M,-7.585,M,,*40
$PSAT,FVI,030000.70,39.787323165,116.567538130,22.514,0.661,0.795,1.473,,,-0.031,0.509,0.12,0.51,0.00,0.01,-0.05,0.01,,,,50N,462970.852,4404242.034,36,00,1,0,,*17
$GPGST,030000.70,2.000,0.807,0.646,73.161,0.661,0.795,1.473*63
$GPGGA,030000.80,3947.2393925,N,11634.0522872,E,1,36,0.5,30.087,M,-7.585,M,,*4C
$PSAT,FVI,030000.80,39.787323209,116.567538120,22.502,0.661,0.795,1.473,,,-0.018,0.509,0.16,0.51,0.01,0.00,0.04,0.01,,,,50N,462970.851,4404242.039,36,00,1,0,,*3A
$GPGST,030000.80,2.000,0.807,0.646,73.161,0.661,0.795,1.473*6C
$GPGGA,030000.90,3947.2393954,N,11634.0522870,E,1,36,0.5,30.070,M,-7.585,M,,*41
$PSAT,FVI,030000.90,39.787323256,116.567538117,22.485,0.661,0.795,1.473,,,-0.018,0.511,0.13,0.51,-0.03,0.00,-0.03,0.03,,,,50N,462970.851,4404242.044,36,00,1,0,,*3A
$GPGST,030000.90,2.000,0.807,0.646,73.161,0.661,0.795,1.473*6D
$GPGGA,030001.00,3947.2393979,N,11634.0522868,E,1,36,0.5,30.058,M,-7.585,M,,*45
$PSAT,FVI,030001.00,39.787323298,116.567538113,22.473,0.661,0.795,1.473,,,-0.031,0.501,0.13,0.50,-0.01,-0.01,-0.00,0.02,,,,50N,462970.850,4404242.049,36,00,1,0,,*16
$GPGST,030001.00,2.000,0.807,0.646,73.161,0.661,0.795,1.473*65
$PSAT,RTKSTAT,AUT,NONE,0,0564,0,(,L1,L2,L2C,L5,G1,G2,B1,B2,B3,B1C,B2A,B2B,B2AB,E1B,E5A,E5B,E5AB,E6,QL1,QL2,QL5,IL5,)(,8,7,7,5,5,4,13,6,13,5,5,6,0,5,5,5,0,0,3,3,0,2,)(,C,A,A,A,A,A,A,A,A,A,A,A,A,A,A,A,B,A,C,A,A,D,),51,0,1.034,027,0*65
$GPGGA,030001.10,3947.2394007,N,11634.0522870,E,1,36,0.5,30.041,M,-7.585,M,,*42
$PSAT,FVI,030001.10,39.787323344,116.567538117,22.456,0.661,0.795,1.473,,,-0.043,0.505,0.17,0.51,0.01,-0.01,-0.03,0.01,,,,50N,462970.851,4404242.054,36,00,1,0,,*30
$GPGST,030001.10,2.000,0.807,0.646,73.166,0.661,0.795,1.473*63
$GPGGA,030001.20,3947.2394035,N,11634.0522864,E,1,36,0.5,30.027,M,-7.585,M,,*45
$PSAT,FVI,030001.20,39.787323392,116.567538107,22.442,0.661,0.795,1.473,,,-0.055,0.506,0.15,0.51,-0.00,-0.01,-0.02,0.01,,,,50N,462970.850,4404242.060,36,00,1,0,,*11
$GPGST,030001.20,2.000,0.807,0.646,73.166,0.661,0.795,1.473*60
$GPGGA,030001.30,3947.2394059,N,11634.0522863,E,1,36,0.5,30.012,M,-7.585,M,,*4F
$PSAT,FVI,030001.30,39.787323432,116.567538104,22.427,0.661,0.795,1.473,,,-0.061,0.502,0.09,0.50,0.01,0.00,0.00,0.01,,,,50N,462970.850,4404242.064,36,00,1,0,,*39
$GPGST,030001.30,2.000,0.807,0.646,73.168,0.661,0.795,1.473*6F
$GPGGA,030001.40,3947.2394091,N,11634.0522867,E,1,36,0.5,29.997,M,-7.585,M,,*44
$PSAT,FVI,030001.40,39.787323484,116.567538112,22.412,0.661,0.795,1.473,,,-0.025,0.501,0.17,0.50,0.01,-0.02,-0.00,0.02,,,,50N,462970.850,4404242.070,36,00,1,0,,*3A
$GPGST,030001.40,2.000,0.807,0.646,73.168,0.661,0.795,1.473*68
$GPGGA,030001.50,3947.2394117,N,11634.0522862,E,1,36,0.5,29.985,M,-7.585,M,,*4C
$PSAT,FVI,030001.50,39.787323528,116.567538104,22.400,0.661,0.795,1.473,,,0.000,0.517,0.16,0.52,-0.01,0.02,0.08,0.02,,,,50N,462970.850,4404242.075,36,00,1,0,,*36
$GPGST,030001.50,2.000,0.807,0.646,73.168,0.661,0.795,1.473*69
$GPGGA,030001.60,3947.2394145,N,11634.0522862,E,1,36,0.5,29.967,M,-7.585,M,,*44
$PSAT,FVI,030001.60,39.787323574,116.567538103,22.382,0.661,0.795,1.473,,,-0.025,0.504,0.14,0.50,0.01,-0.00,0.01,0.01,,,,50N,462970.850,4404242.080,36,00,1,0,,*1C
$GPGST,030001.60,2.000,0.807,0.646,73.168,0.661,0.795,1.473*6A
$GPGGA,030001.70,3947.2394178,N,11634.0522868,E,1,36,0.5,29.951,M,-7.585,M,,*44
$PSAT,FVI,030001.70,39.787323629,116.567538113,22.366,0.661,0.795,1.473,,,-0.018,0.505,0.15,0.50,0.01,0.00,-0.02,0.01,,,,50N,462970.850,4404242.086,36,00,1,0,,*16
$GPGST,030001.70,2.000,0.807,0.646,73.168,0.661,0.795,1.473*6B
$GPGGA,030001.80,3947.2394203,N,11634.0522868,E,1,36,0.5,29.937,M,-7.585,M,,*44
$PSAT,FVI,030001.80,39.787323671,116.567538114,22.352,0.661,0.795,1.473,,,-0.049,0.502,0.17,0.50,-0.00,0.00,-0.00,0.00,,,,50N,462970.851,4404242.091,36,00,1,0,,*3D
$GPGST,030001.80,2.000,0.807,0.646,73.173,0.661,0.795,1.473*6E
$GPGGA,030001.90,3947.2394231,N,11634.0522871,E,1,36,0.5,29.920,M,-7.585,M,,*4A
$PSAT,FVI,030001.90,39.787323719,116.567538119,22.335,0.661,0.795,1.473,,,-0.043,0.508,0.14,0.51,-0.00,-0.01,-0.04,0.01,,,,50N,462970.851,4404242.096,36,00,1,0,,*13
$GPGST,030001.90,2.000,0.807,0.646,73.173,0.661,0.795,1.473*6F
$GPGGA,030002.00,3947.2394261,N,11634.0522878,E,1,36,0.5,29.907,M,-7.585,M,,*49
$PSAT,FVI,030002.00,39.787323768,116.567538130,22.322,0.661,0.795,1.473,,,-0.037,0.502,0.19,0.50,0.01,0.01,0.00,0.01,,,,50N,462970.852,4404242.101,36,00,1,0,,*33
$GPGST,030002.00,2.000,0.807,0.646,73.174,0.661,0.795,1.473*62
$PSAT,RTKSTAT,AUT,NONE,0,0564,0,(,L1,L2,L2C,L5,G1,G2,B1,B2,B3,B1C,B2A,B2B,B2AB,E1B,E5A,E5B,E5AB,E6,QL1,QL2,QL5,IL5,)(,8,7,6,5,5,4,13,6,12,5,5,6,0,5,5,5,0,0,3,3,0,2,)(,C,A,A,A,A,A,A,A,A,A,A,A,A,A,A,A,B,A,C,A,A,D,),54,0,1.034,027,0*60
$GPGGA,030002.10,3947.2394283,N,11634.0522875,E,1,36,0.5,29.892,M,-7.585,M,,*44
$PSAT,FVI,030002.10,39.787323804,116.567538126,22.307,0.661,0.795,1.473,,,-0.031,0.506,0.13,0.51,-0.01,0.02,0.02,0.02,,,,50N,462970.852,4404242.105,36,00,1,0,,*15
$GPGST,030002.10,2.000,0.807,0.646,73.174,0.661,0.795,1.473*63
$GPGGA,030002.20,3947.2394312,N,11634.0522878,E,1,36,0.5,29.876,M,-7.585,M,,*49
$PSAT,FVI,030002.20,39.787323853,116.567538129,22.291,0.661,0.795,1.473,,,0.006,0.506,0.17,0.51,0.01,-0.01,-0.03,0.02,,,,50N,462970.852,4404242.111,36,00,1,0,,*12
$GPGST,030002.20,2.000,0.807,0.646,73.174,0.661,0.795,1.473*60
$GPGGA,030002.30,3947.2394336,N,11634.0522882,E,1,36,0.5,29.863,M,-7.585,M,,*4F
$PSAT,FVI,030002.30,39.787323894,116.567538137,22.278,0.661,0.795,1.473,,,-0.012,0.504,0.15,0.50,0.02,-0.00,0.01,0.02,,,,50N,462970.853,4404242.115,36,00,1,0,,*11
$GPGST,030002.30,2.000,0.807,0.646,73.174,0.661,0.795,1.473*61
$GPGGA,030002.40,3947.2394362,N,11634.0522882,E,1,36,0.5,29.849,M,-7.585,M,,*41
$PSAT,FVI,030002.40,39.787323936,116.567538136,22.264,0.661,0.795,1.473,,,-0.012,0.504,0.15,0.50,-0.03,-0.00,-0.00,0.03,,,,50N,462970.853,4404242.120,36,00,1,0,,*14
$GPGST,030002.40,2.000,0.807,0.646,73.178,0.661,0.795,1.473*6A
$GPGGA,030002.50,3947.2394390,N,11634.0522890,E,1,36,0.5,29.832,M,-7.585,M,,*42
$PSAT,FVI,030002.50,39.787323984,116.567538150,22.247,0.661,0.795,1.473,,,-0.018,0.503,0.17,0.50,-0.01,-0.00,-0.01,0.01,,,,50N,462970.854,4404242.125,36,00,1,0,,*11
$GPGST,030002.50,2.000,0.807,0.646,73.178,0.661,0.795,1.473*6B
$GPGGA,030002.60,3947.2394413,N,11634.0522889,E,1,36,0.5,29.818,M,-7.585,M,,*4D
$PSAT,FVI,030002.60,39.787324022,116.567538149,22.233,0.661,0.795,1.473,,,-0.037,0.514,0.13,0.51,0.02,0.04,0.04,0.04,,,,50N,462970.854,4404242.129,36,00,1,0,,*33
$GPGST,030002.60,2.000,0.807,0.646,73.181,0.661,0.795,1.473*6E
$GPGGA,030002.70,3947.2394413,N,11634.0522917,E,1,36,0.5,29.817,M,-7.585,M,,*45
$PSAT,FVI,030002.70,39.787324021,116.567538195,22.232,0.661,0.795,1.473,,,-0.043,0.512,0.17,0.51,-0.01,-0.00,0.05,0.01,,,,50N,462970.858,4404242.129,36,00,1,0,,*3F
$GPGST,030002.70,2.000,0.807,0.646,73.181,0.661,0.795,1.473*6F
$GPGGA,030002.80,3947.2394420,N,11634.0522945,E,1,37,0.5,29.816,M,-7.585,M,,*4D
$PSAT,FVI,030002.80,39.787324034,116.567538242,22.231,0.661,0.795,1.473,,,-0.031,0.516,0.11,0.52,-0.02,0.00,0.07,0.02,,,,50N,462970.862,4404242.131,37,00,1,0,,*14
$GPGST,030002.80,2.000,0.807,0.646,73.181,0.661,0.795,1.473*60
$GPGGA,030002.90,3947.2394419,N,11634.0522966,E,1,36,0.5,29.813,M,-7.585,M,,*43
$PSAT,FVI,030002.90,39.787324031,116.567538277,22.228,0.661,0.795,1.473,,,-0.025,0.507,0.15,0.51,-0.01,0.00,0.02,0.01,,,,50N,462970.865,4404242.130,36,00,1,0,,*1E
$GPGST,030002.90,2.000,0.807,0.646,73.181,0.661,0.795,1.473*61
$GPGGA,030003.00,3947.2394423,N,11634.0522999,E,1,36,0.5,29.811,M,-7.585,M,,*40
$PSAT,FVI,030003.00,39.787324038,116.567538331,22.226,0.654,0.772,1.470,,,-0.025,0.507,0.16,0.51,-0.01,-0.00,0.02,0.01,,,,50N,462970.869,4404242.131,36,00,1,0,,*3D
$GPGST,030003.00,2.000,0.780,0.645,75.798,0.654,0.772,1.470*6E
$PSAT,RTKSTAT,AUT,NONE,0,0564,0,(,L1,L2,L2C,L5,G1,G2,B1,B2,B3,B1C,B2A,B2B,B2AB,E1B,E5A,E5B,E5AB,E6,QL1,QL2,QL5,IL5,)(,8,7,6,5,5,4,13,6,13,5,5,6,0,5,5,5,0,0,3,3,0,2,)(,C,A,A,A,A,A,A,A,A,A,A,A,A,A,A,A,B,A,C,A,A,D,),57,0,1.012,027,0*66
$GPGGA,030003.10,3947.2394431,N,11634.0523021,E,1,36,0.5,29.808,M,-7.585,M,,*41
$PSAT,FVI,030003.10,39.787324051,116.567538368,22.223,0.654,0.772,1.470,,,-0.006,0.506,0.17,0.51,0.01,-0.00,-0.03,0.01,,,,50N,462970.873,4404242.133,36,00,1,0,,*33
$GPGST,030003.10,2.000,0.780,0.645,75.798,0.654,0.772,1.470*6F
$GPGGA,030003.20,3947.2394435,N,11634.0523045,E,1,36,0.5,29.807,M,-7.585,M,,*4B
$PSAT,FVI,030003.20,39.787324058,116.567538408,22.222,0.654,0.772,1.470,,,-0.031,0.501,0.15,0.50,0.01,0.01,-0.00,0.01,,,,50N,462970.876,4404242.133,36,00,1,0,,*13
$GPGST,030003.20,2.000,0.780,0.645,75.800,0.654,0.772,1.470*62
$GPGGA,030003.30,3947.2394447,N,11634.0523063,E,1,36,0.5,29.808,M,-7.585,M,,*44
$PSAT,FVI,030003.30,39.787324079,116.567538439,22.223,0.654,0.772,1.470,,,-0.043,0.501,0.15,0.50,-0.01,0.01,-0.00,0.01,,,,50N,462970.879,4404242.136,36,00,1,0,,*30
$GPGST,030003.30,2.000,0.780,0.645,75.800,0.654,0.772,1.470*63
$GPGGA,030003.40,3947.2394453,N,11634.0523084,E,1,37,0.5,29.807,M,-7.585,M,,*41
$PSAT,FVI,030003.40,39.787324088,116.567538474,22.222,0.661,0.795,1.472,,,-0.049,0.504,0.17,0.50,0.03,-0.01,-0.01,0.03,,,,50N,462970.882,4404242.137,37,00,1,0,,*34
$GPGST,030003.40,2.000,0.807,0.646,73.188,0.661,0.795,1.472*65
$GPGGA,030003.50,3947.2394460,N,11634.0523102,E,1,36,0.5,29.806,M,-7.585,M,,*4F
$PSAT,FVI,030003.50,39.787324100,116.567538503,22.221,0.661,0.795,1.472,,,-0.037,0.502,0.13,0.50,0.02,-0.01,-0.01,0.02,,,,50N,462970.884,4404242.138,36,00,1,0,,*35
$GPGST,030003.50,2.000,0.807,0.646,73.188,0.661,0.795,1.472*64
$GPGGA,030003.60,3947.2394466,N,11634.0523126,E,1,36,0.5,29.807,M,-7.585,M,,*4D
$PSAT,FVI,030003.60,39.787324110,116.567538543,22.222,0.654,0.772,1.470,,,-0.025,0.504,0.17,0.50,-0.00,-0.00,-0.00,0.00,,,,50N,462970.888,4404242.139,36,00,1,0,,*1C
$GPGST,030003.60,2.000,0.780,0.645,75.804,0.654,0.772,1.470*62
$GPGGA,030003.70,3947.2394474,N,11634.0523144,E,1,36,0.5,29.808,M,-7.585,M,,*44
$PSAT,FVI,030003.70,39.787324123,116.567538574,22.223,0.654,0.772,1.470,,,-0.018,0.505,0.15,0.50,-0.01,0.02,0.02,0.02,,,,50N,462970.890,4404242.140,36,00,1,0,,*11
$GPGST,030003.70,2.000,0.780,0.645,75.804,0.654,0.772,1.470*63
$GPGGA,030003.80,3947.2394481,N,11634.0523170,E,1,36,0.5,29.808,M,-7.585,M,,*46
$PSAT,FVI,030003.80,39.787324135,116.567538616,22.223,0.661,0.795,1.472,,,0.031,0.503,0.17,0.50,0.01,0.00,0.01,0.01,,,,50N,462970.894,4404242.142,36,00,1,0,,*18
$GPGST,030003.80,2.000,0.807,0.646,73.191,0.661,0.795,1.472*61
$GPGGA,030003.90,3947.2394491,N,11634.0523189,E,1,36,0.5,29.809,M,-7.585,M,,*41
$PSAT,FVI,030003.90,39.787324151,116.567538648,22.224,0.661,0.795,1.472,,,-0.031,0.503,0.15,0.50,-0.00,0.00,-0.00,0.00,,,,50N,462970.897,4404242.144,36,00,1,0,,*3C
$GPGST,030003.90,2.000,0.807,0.646,73.191,0.661,0.795,1.472*60
$GPGGA,030004.00,3947.2394495,N,11634.0523210,E,1,37,0.5,29.809,M,-7.585,M,,*49
$PSAT,FVI,030004.00,39.787324159,116.567538683,22.224,0.661,0.795,1.472,,,-0.055,0.511,0.10,0.51,-0.02,0.00,0.04,0.02,,,,50N,462970.900,4404242.144,37,00,1,0,,*1F
$GPGST,030004.00,2.000,0.807,0.646,73.191,0.661,0.795,1.472*6E
$PSAT,RTKSTAT,AUT,NONE,0,0564,0,(,L1,L2,L2C,L5,G1,G2,B1,B2,B3,B1C,B2A,B2B,B2AB,E1B,E5A,E5B,E5AB,E6,QL1,QL2,QL5,IL5,)(,8,7,6,5,5,4,13,6,14,5,5,6,0,5,5,5,0,0,3,3,0,2,)(,C,A,A,A,A,A,A,A,A,A,A,A,A,A,A,A,B,A,C,A,A,D,),61,0,1.034,027,0*60
$GPGGA,030004.10,3947.2394505,N,11634.0523226,E,1,37,0.5,29.809,M,-7.585,M,,*45
$PSAT,FVI,030004.10,39.787324174,116.567538710,22.224,0.661,0.795,1.472,,,-0.037,0.505,0.16,0.51,0.02,-0.01,0.02,0.03,,,,50N,462970.902,4404242.146,37,00,1,0,,*1B
$GPGST,030004.10,2.000,0.807,0.646,73.191,0.661,0.795,1.472*6F
$GPGGA,030004.20,3947.2394504,N,11634.0523245,E,1,36,0.5,29.810,M,-7.585,M,,*4B
$PSAT,FVI,030004.20,39.787324174,116.567538742,22.225,0.654,0.772,1.470,,,-0.025,0.511,0.18,0.51,-0.01,0.02,0.05,0.02,,,,50N,462970.905,4404242.146,36,00,1,0,,*1B
$GPGST,030004.20,2.000,0.780,0.645,75.811,0.654,0.772,1.470*65
$GPGGA,030004.30,3947.2394511,N,11634.0523271,E,1,36,0.5,29.811,M,-7.585,M,,*48
$PSAT,FVI,030004.30,39.787324184,116.567538784,22.226,0.654,0.772,1.470,,,-0.031,0.512,0.13,0.51,-0.02,-0.02,0.05,0.03,,,,50N,462970.908,4404242.147,36,00,1,0,,*32
$GPGST,030004.30,2.000,0.780,0.645,75.811,0.654,0.772,1.470*64
$GPGGA,030004.40,3947.2394518,N,11634.0523295,E,1,36,0.5,29.810,M,-7.585,M,,*4D
$PSAT,FVI,030004.40,39.787324197,116.567538824,22.225,0.654,0.772,1.470,,,-0.049,0.513,0.15,0.51,0.00,-0.01,-0.06,0.01,,,,50N,462970.912,4404242.149,36,00,1,0,,*3C
$GPGST,030004.40,2.000,0.780,0.645,75.813,0.654,0.772,1.470*61
$GPGGA,030004.50,3947.2394523,N,11634.0523306,E,1,36,0.5,29.814,M,-7.585,M,,*4B
$PSAT,FVI,030004.50,39.787324205,116.567538843,22.229,0.654,0.772,1.470,,,-0.006,0.512,0.15,0.51,0.03,0.03,0.04,0.04,,,,50N,462970.913,4404242.149,36,00,1,0,,*35
$GPGST,030004.50,2.000,0.780,0.645,75.813,0.654,0.772,1.470*60
$GPGGA,030004.60,3947.2394527,N,11634.0523319,E,1,37,0.5,29.814,M,-7.585,M,,*43
$PSAT,FVI,030004.60,39.787324211,116.567538864,22.229,0.661,0.795,1.472,,,-0.037,0.506,0.21,0.51,-0.03,0.03,0.01,0.04,,,,50N,462970.915,4404242.150,37,00,1,0,,*1C
$GPGST,030004.60,2.000,0.807,0.646,73.199,0.661,0.795,1.472*60
$GPGGA,030004.70,3947.2394529,N,11634.0523334,E,1,37,0.5,29.815,M,-7.585,M,,*42
$PSAT,FVI,030004.70,39.787324216,116.567538889,22.230,0.661,0.795,1.472,,,-0.080,0.506,0.16,0.51,0.01,0.01,-0.02,0.01,,,,50N,462970.917,4404242.151,37,00,1,0,,*1C
$GPGST,030004.70,2.000,0.807,0.646,73.199,0.661,0.795,1.472*61
$GPGGA,030004.80,3947.2394532,N,11634.0523328,E,1,36,0.5,29.818,M,-7.585,M,,*46
$PSAT,FVI,030004.80,39.787324219,116.567538880,22.233,0.654,0.772,1.470,,,-0.049,0.505,0.17,0.50,0.01,-0.03,-0.01,0.03,,,,50N,462970.917,4404242.151,36,00,1,0,,*32
$GPGST,030004.80,2.000,0.780,0.645,75.818,0.654,0.772,1.470*66
$GPGGA,030004.90,3947.2394526,N,11634.0523328,E,1,36,0.5,29.822,M,-7.585,M,,*4B
$PSAT,FVI,030004.90,39.787324210,116.567538880,22.237,0.654,0.772,1.470,,,-0.043,0.503,0.17,0.50,-0.00,-0.02,-0.01,0.02,,,,50N,462970.916,4404242.150,36,00,1,0,,*1E
$GPGST,030004.90,2.000,0.780,0.645,75.818,0.654,0.772,1.470*67
$GPGGA,030005.00,3947.2394520,N,11634.0523314,E,1,36,0.5,29.826,M,-7.585,M,,*4E
$PSAT,FVI,030005.00,39.787324200,116.567538857,22.241,0.661,0.795,1.472,,,-0.055,0.506,0.15,0.51,0.00,0.01,-0.01,0.01,,,,50N,462970.914,4404242.149,36,00,1,0,,*1A
$GPGST,030005.00,2.000,0.807,0.646,73.203,0.661,0.795,1.472*67
$PSAT,RTKSTAT,AUT,NONE,0,0564,0,(,L1,L2,L2C,L5,G1,G2,B1,B2,B3,B1C,B2A,B2B,B2AB,E1B,E5A,E5B,E5AB,E6,QL1,QL2,QL5,IL5,)(,8,7,6,5,5,4,13,6,12,5,5,6,0,5,5,5,0,0,3,3,0,2,)(,C,A,A,A,A,A,A,A,A,A,A,A,A,A,A,A,B,A,C,A,A,D,),66,0,1.034,027,0*61
$GPGGA,030005.10,3947.2394511,N,11634.0523297,E,1,36,0.5,29.830,M,-7.585,M,,*40
$PSAT,FVI,030005.10,39.787324184,116.567538828,22.245,0.661,0.795,1.472,,,-0.018,0.503,0.13,0.50,0.02,0.02,-0.01,0.03,,,,50N,462970.912,4404242.147,36,00,1,0,,*18
$GPGST,030005.10,2.000,0.807,0.646,73.203,0.661,0.795,1.472*66
$GPGGA,030005.20,3947.2394503,N,11634.0523288,E,1,36,0.5,29.836,M,-7.585,M,,*48
$PSAT,FVI,030005.20,39.787324171,116.567538813,22.251,0.661,0.795,1.472,,,-0.031,0.506,0.15,0.51,0.00,-0.00,0.02,0.00,,,,50N,462970.911,4404242.146,36,00,1,0,,*17
$GPGST,030005.20,2.000,0.807,0.646,73.203,0.661,0.795,1.472*65
$GPGGA,030005.30,3947.2394492,N,11634.0523272,E,1,36,0.5,29.840,M,-7.585,M,,*44
$PSAT,FVI,030005.30,39.787324154,116.567538787,22.255,0.661,0.795,1.472,,,-0.006,0.510,0.17,0.51,-0.00,-0.01,0.04,0.01,,,,50N,462970.908,4404242.144,36,00,1,0,,*37
$GPGST,030005.30,2.000,0.807,0.646,73.203,0.661,0.795,1.472*64
$GPGGA,030005.40,3947.2394490,N,11634.0523248,E,1,36,0.5,29.845,M,-7.585,M,,*4D
$PSAT,FVI,030005.40,39.787324151,116.567538747,22.260,0.654,0.772,1.470,,,-0.074,0.504,0.18,0.50,-0.02,-0.00,0.02,0.02,,,,50N,462970.905,4404242.143,36,00,1,0,,*30
$GPGST,030005.40,2.000,0.780,0.645,75.824,0.654,0.772,1.470*64
$GPGGA,030005.50,3947.2394485,N,11634.0523230,E,1,36,0.5,29.851,M,-7.585,M,,*42
$PSAT,FVI,030005.50,39.787324141,116.567538716,22.266,0.654,0.772,1.470,,,-0.061,0.503,0.13,0.50,-0.01,0.02,0.01,0.02,,,,50N,462970.902,4404242.142,36,00,1,0,,*13
$GPGST,030005.50,2.000,0.780,0.645,75.824,0.654,0.772,1.470*65
$GPGGA,030005.60,3947.2394477,N,11634.0523209,E,1,36,0.5,29.853,M,-7.585,M,,*44
$PSAT,FVI,030005.60,39.787324129,116.567538682,22.268,0.642,0.771,1.453,,,-0.037,0.510,0.13,0.51,0.00,-0.00,-0.03,0.00,,,,50N,462970.899,4404242.141,36,00,1,0,,*37
$GPGST,030005.60,2.000,0.780,0.632,75.443,0.642,0.771,1.453*6E
$GPGGA,030005.70,3947.2394471,N,11634.0523185,E,1,36,0.5,29.862,M,-7.585,M,,*46
$PSAT,FVI,030005.70,39.787324119,116.567538642,22.277,0.642,0.771,1.453,,,0.037,0.505,0.16,0.51,0.02,-0.00,0.02,0.02,,,,50N,462970.896,4404242.140,36,00,1,0,,*39
$GPGST,030005.70,2.000,0.780,0.632,75.443,0.642,0.771,1.453*6F
$GPGGA,030005.80,3947.2394459,N,11634.0523171,E,1,36,0.5,29.867,M,-7.585,M,,*4D
$PSAT,FVI,030005.80,39.787324098,116.567538618,22.282,0.649,0.794,1.455,,,-0.037,0.507,0.15,0.51,-0.00,0.03,0.03,0.03,,,,50N,462970.894,4404242.138,36,00,1,0,,*1D
$GPGST,030005.80,2.000,0.807,0.633,73.426,0.649,0.794,1.455*62
$GPGGA,030005.90,3947.2394456,N,11634.0523141,E,1,36,0.5,29.873,M,-7.585,M,,*45
$PSAT,FVI,030005.90,39.787324094,116.567538569,22.288,0.649,0.794,1.455,,,0.025,0.512,0.17,0.51,0.00,-0.00,-0.05,0.01,,,,50N,462970.890,4404242.137,36,00,1,0,,*16
$GPGST,030005.90,2.000,0.807,0.633,73.426,0.649,0.794,1.455*63
$GPGGA,030006.00,3947.2394443,N,11634.0523113,E,1,36,0.5,29.882,M,-7.585,M,,*42
$PSAT,FVI,030006.00,39.787324072,116.567538522,22.297,0.649,0.794,1.455,,,-0.061,0.506,0.15,0.51,-0.02,0.02,0.02,0.03,,,,50N,462970.886,4404242.135,36,00,1,0,,*12
$GPGST,030006.00,2.000,0.807,0.633,73.426,0.649,0.794,1.455*69
$PSAT,RTKSTAT,AUT,NONE,0,0564,0,(,L1,L2,L2C,L5,G1,G2,B1,B2,B3,B1C,B2A,B2B,B2AB,E1B,E5A,E5B,E5AB,E6,QL1,QL2,QL5,IL5,)(,8,7,6,5,5,4,13,6,12,6,6,7,0,5,5,5,0,0,3,3,0,2,)(,C,A,A,A,A,A,A,A,A,B,A,A,A,A,A,A,B,A,C,A,A,D,),73,0,1.026,027,0*64
$GPGGA,030006.10,3947.2394434,N,11634.0523082,E,1,36,0.5,29.888,M,-7.585,M,,*40
$PSAT,FVI,030006.10,39.787324056,116.567538470,22.303,0.649,0.794,1.455,,,-0.043,0.502,0.18,0.50,-0.01,-0.01,0.01,0.01,,,,50N,462970.881,4404242.133,36,00,1,0,,*3A
$GPGST,030006.10,2.000,0.807,0.633,73.426,0.649,0.794,1.455*68
$GPGGA,030006.20,3947.2394430,N,11634.0523052,E,1,36,0.5,29.892,M,-7.585,M,,*41
$PSAT,FVI,030006.20,39.787324051,116.567538420,22.307,0.649,0.794,1.455,,,-0.018,0.504,0.19,0.50,-0.01,-0.00,-0.01,0.01,,,,50N,462970.877,4404242.133,36,00,1,0,,*13
$GPGST,030006.20,2.000,0.807,0.633,73.426,0.649,0.794,1.455*6B
$GPGGA,030006.30,3947.2394420,N,11634.0523029,E,1,36,0.5,29.900,M,-7.585,M,,*47
$PSAT,FVI,030006.30,39.787324033,116.567538381,22.315,0.649,0.794,1.455,,,-0.037,0.505,0.10,0.50,-0.02,0.02,0.02,0.02,,,,50N,462970.874,4404242.131,36,00,1,0,,*1C
$GPGST,030006.30,2.000,0.807,0.633,73.426,0.649,0.794,1.455*6A
$GPGGA,030006.40,3947.2394411,N,11634.0523002,E,1,36,0.5,29.905,M,-7.585,M,,*4E
$PSAT,FVI,030006.40,39.787324018,116.567538337,22.320,0.649,0.794,1.455,,,0.000,0.503,0.17,0.50,-0.01,0.00,0.00,0.01,,,,50N,462970.870,4404242.129,36,00,1,0,,*3C
$GPGST,030006.40,2.000,0.807,0.633,73.426,0.649,0.794,1.455*6D
$GPGGA,030006.50,3947.2394408,N,11634.0522970,E,1,36,0.5,29.912,M,-7.585,M,,*4C
$PSAT,FVI,030006.50,39.787324013,116.567538284,22.327,0.649,0.794,1.455,,,0.006,0.501,0.15,0.50,0.02,0.01,-0.00,0.02,,,,50N,462970.865,4404242.128,36,00,1,0,,*3A
$GPGST,030006.50,2.000,0.807,0.633,73.426,0.649,0.794,1.455*6C
$GPGGA,030006.60,3947.2394398,N,11634.0522944,E,1,36,0.5,29.918,M,-7.585,M,,*4C
$PSAT,FVI,030006.60,39.787323997,116.567538239,22.333,0.649,0.794,1.455,,,-0.049,0.504,0.14,0.50,-0.01,0.00,-0.01,0.01,,,,50N,462970.862,4404242.127,36,00,1,0,,*3F
$GPGST,030006.60,2.000,0.807,0.633,73.434,0.649,0.794,1.455*6C
$GPGGA,030006.70,3947.2394390,N,11634.0522914,E,1,36,0.5,29.923,M,-7.585,M,,*48
$PSAT,FVI,030006.70,39.787323984,116.567538189,22.338,0.649,0.794,1.455,,,-0.037,0.505,0.17,0.51,0.02,0.01,-0.02,0.02,,,,50N,462970.857,4404242.125,36,00,1,0,,*1E
$GPGST,030006.70,2.000,0.807,0.633,73.434,0.649,0.794,1.455*6D
$GPGGA,030006.80,3947.2394383,N,11634.0522880,E,1,36,0.5,29.931,M,-7.585,M,,*4A
$PSAT,FVI,030006.80,39.787323972,116.567538133,22.346,0.649,0.794,1.455,,,-0.049,0.506,0.16,0.51,0.01,0.02,0.02,0.03,,,,50N,462970.852,4404242.124,36,00,1,0,,*33
$GPGST,030006.80,2.000,0.807,0.633,73.436,0.649,0.794,1.455*60
$GPGGA,030006.90,3947.2394372,N,11634.0522845,E,1,36,0.5,29.938,M,-7.585,M,,*45
$PSAT,FVI,030006.90,39.787323953,116.567538075,22.353,0.649,0.794,1.455,,,-0.043,0.502,0.16,0.50,-0.01,0.02,-0.01,0.02,,,,50N,462970.847,4404242.122,36,00,1,0,,*39
$GPGST,030006.90,2.000,0.807,0.633,73.436,0.649,0.794,1.455*61
$GPGGA,030007.00,3947.2394358,N,11634.0522810,E,1,37,0.5,29.944,M,-7.585,M,,*4F
$PSAT,FVI,030007.00,39.787323930,116.567538017,22.359,0.649,0.794,1.455,,,-0.025,0.513,0.18,0.51,0.00,0.00,-0.05,0.01,,,,50N,462970.842,4404242.119,37,00,1,0,,*10
$GPGST,030007.00,2.000,0.807,0.633,73.436,0.649,0.794,1.455*69
$PSAT,RTKSTAT,AUT,NONE,0,0564,0,(,L1,L2,L2C,L5,G1,G2,B1,B2,B3,B1C,B2A,B2B,B2AB,E1B,E5A,E5B,E5AB,E6,QL1,QL2,QL5,IL5,)(,8,7,6,5,5,4,13,6,14,6,6,7,0,5,5,5,0,0,3,3,0,2,)(,B,A,A,A,A,A,A,A,A,B,A,A,A,A,A,A,B,A,C,A,A,D,),80,0,1.026,027,0*6F
$GPGGA,030007.10,3947.2394349,N,11634.0522769,E,1,37,0.5,29.954,M,-7.585,M,,*4E
$PSAT,FVI,030007.10,39.787323916,116.567537948,22.369,0.649,0.794,1.455,,,-0.025,0.505,0.16,0.51,0.00,-0.02,-0.02,0.02,,,,50N,462970.837,4404242.118,37,00,1,0,,*3B
$GPGST,030007.10,2.000,0.807,0.633,73.439,0.649,0.794,1.455*67
$GPGGA,030007.20,3947.2394338,N,11634.0522733,E,1,37,0.5,29.962,M,-7.585,M,,*41
$PSAT,FVI,030007.20,39.787323897,116.567537888,22.377,0.649,0.794,1.455,,,-0.012,0.502,0.18,0.50,0.01,0.01,0.00,0.01,,,,50N,462970.831,4404242.116,37,00,1,0,,*35
$GPGST,030007.20,2.000,0.807,0.633,73.439,0.649,0.794,1.455*64
$GPGGA,030007.30,3947.2394325,N,11634.0522690,E,1,37,0.5,29.971,M,-7.585,M,,*46
$PSAT,FVI,030007.30,39.787323874,116.567537817,22.386,0.649,0.794,1.455,,,0.012,0.510,0.17,0.51,-0.00,0.01,0.04,0.01,,,,50N,462970.825,4404242.113,37,00,1,0,,*39
$GPGST,030007.30,2.000,0.807,0.633,73.441,0.649,0.794,1.455*6A
$GPGGA,030007.40,3947.2394318,N,11634.0522656,E,1,37,0.5,29.978,M,-7.585,M,,*4C
$PSAT,FVI,030007.40,39.787323864,116.567537760,22.393,0.649,0.794,1.455,,,-0.018,0.507,0.16,0.51,0.00,0.00,0.02,0.00,,,,50N,462970.820,4404242.112,37,00,1,0,,*3B
$GPGST,030007.40,2.000,0.807,0.633,73.441,0.649,0.794,1.455*6D
$GPGGA,030007.50,3947.2394302,N,11634.0522612,E,1,37,0.5,29.986,M,-7.585,M,,*47
$PSAT,FVI,030007.50,39.787323837,116.567537686,22.401,0.649,0.794,1.455,,,-0.080,0.506,0.16,0.51,0.00,0.00,-0.02,0.00,,,,50N,462970.814,4404242.109,37,00,1,0,,*19
$GPGST,030007.50,2.000,0.807,0.633,73.441,0.649,0.794,1.455*6C
$GPGGA,030007.60,3947.2394291,N,11634.0522568,E,1,37,0.5,29.994,M,-7.585,M,,*42
$PSAT,FVI,030007.60,39.787323818,116.567537614,22.409,0.649,0.794,1.455,,,-0.031,0.503,0.18,0.50,-0.01,0.03,0.00,0.03,,,,50N,462970.808,4404242.107,37,00,1,0,,*14
$GPGST,030007.60,2.000,0.807,0.633,73.441,0.649,0.794,1.455*6F
$GPGGA,030007.70,3947.2394258,N,11634.0522538,E,1,37,0.5,30.013,M,-7.585,M,,*4D
$PSAT,FVI,030007.70,39.787323763,116.567537563,22.428,0.649,0.794,1.455,,,-0.049,0.505,0.18,0.51,-0.02,-0.01,0.02,0.02,,,,50N,462970.803,4404242.101,37,00,1,0,,*3C
$GPGST,030007.70,2.000,0.807,0.633,73.441,0.649,0.794,1.455*6E
$GPGGA,030007.80,3947.2394224,N,11634.0522513,E,1,37,0.5,30.029,M,-7.585,M,,*49
$PSAT,FVI,030007.80,39.787323706,116.567537521,22.444,0.642,0.771,1.453,,,0.031,0.503,0.16,0.50,0.03,0.00,-0.00,0.03,,,,50N,462970.800,4404242.095,37,00,1,0,,*30
$GPGST,030007.80,2.000,0.780,0.632,75.467,0.642,0.771,1.453*64
$GPGGA,030007.90,3947.2394196,N,11634.0522484,E,1,37,0.5,30.046,M,-7.585,M,,*44
$PSAT,FVI,030007.90,39.787323660,116.567537473,22.461,0.642,0.771,1.453,,,-0.025,0.501,0.13,0.50,0.02,0.00,-0.00,0.02,,,,50N,462970.796,4404242.089,37,00,1,0,,*13
$GPGST,030007.90,2.000,0.780,0.632,75.467,0.642,0.771,1.453*65
$GPGGA,030008.00,3947.2394163,N,11634.0522457,E,1,37,0.5,30.063,M,-7.585,M,,*41
$PSAT,FVI,030008.00,39.787323605,116.567537428,22.478,0.642,0.771,1.453,,,-0.018,0.505,0.16,0.51,0.02,0.01,0.02,0.02,,,,50N,462970.792,4404242.083,37,00,1,0,,*3E
$GPGST,030008.00,2.000,0.780,0.632,75.470,0.642,0.771,1.453*65
$PSAT,RTKSTAT,AUT,NONE,0,0564,0,(,L1,L2,L2C,L5,G1,G2,B1,B2,B3,B1C,B2A,B2B,B2AB,E1B,E5A,E5B,E5AB,E6,QL1,QL2,QL5,IL5,)(,8,7,6,5,5,4,14,6,12,6,6,7,0,5,5,5,0,0,3,3,0,2,)(,B,A,A,A,A,A,A,A,A,B,A,A,A,A,A,A,B,A,C,A,A,D,),84,0,1.004,027,0*6A
$GPGGA,030008.10,3947.2394133,N,11634.0522429,E,1,37,0.5,30.079,M,-7.585,M,,*47
$PSAT,FVI,030008.10,39.787323555,116.567537381,22.494,0.642,0.771,1.453,,,-0.025,0.508,0.12,0.51,0.04,-0.01,-0.02,0.04,,,,50N,462970.788,4404242.078,37,00,1,0,,*37
$GPGST,030008.10,2.000,0.780,0.632,75.470,0.642,0.771,1.453*64
$GPGGA,030008.20,3947.2394101,N,11634.0522399,E,1,37,0.5,30.097,M,-7.585,M,,*49
$PSAT,FVI,030008.20,39.787323501,116.567537332,22.512,0.649,0.794,1.455,,,-0.049,0.501,0.16,0.50,-0.02,-0.01,-0.00,0.02,,,,50N,462970.784,4404242.072,37,00,1,0,,*1B
$GPGST,030008.20,2.000,0.807,0.633,73.449,0.649,0.794,1.455*6C
$GPGGA,030008.30,3947.2394072,N,11634.0522372,E,1,37,0.5,30.114,M,-7.585,M,,*42
$PSAT,FVI,030008.30,39.787323453,116.567537287,22.529,0.649,0.794,1.455,,,0.000,0.506,0.17,0.51,-0.01,-0.00,-0.02,0.01,,,,50N,462970.780,4404242.067,37,00,1,0,,*3F
$GPGST,030008.30,2.000,0.807,0.633,73.449,0.649,0.794,1.455*6D
$GPGGA,030008.40,3947.2394040,N,11634.0522340,E,1,37,0.5,30.131,M,-7.585,M,,*42
$PSAT,FVI,030008.40,39.787323401,116.567537233,22.546,0.642,0.771,1.453,,,-0.055,0.502,0.16,0.50,0.01,-0.01,0.01,0.02,,,,50N,462970.775,4404242.061,37,00,1,0,,*1B
$GPGST,030008.40,2.000,0.780,0.632,75.474,0.642,0.771,1.453*65
$GPGGA,030008.50,3947.2394007,N,11634.0522305,E,1,37,0.5,30.148,M,-7.585,M,,*4F
$PSAT,FVI,030008.50,39.787323346,116.567537175,22.563,0.642,0.771,1.453,,,-0.031,0.501,0.17,0.50,-0.02,0.00,0.01,0.02,,,,50N,462970.770,4404242.055,37,00,1,0,,*18
$GPGST,030008.50,2.000,0.780,0.632,75.474,0.642,0.771,1.453*64
$GPGGA,030008.60,3947.2393975,N,11634.0522273,E,1,37,0.5,30.165,M,-7.585,M,,*48
$PSAT,FVI,030008.60,39.787323292,116.567537122,22.580,0.649,0.794,1.455,,,0.006,0.507,0.18,0.51,-0.02,0.00,0.03,0.02,,,,50N,462970.765,4404242.049,37,00,1,0,,*30
$GPGST,030008.60,2.000,0.807,0.633,73.453,0.649,0.794,1.455*63
$GPGGA,030008.70,3947.2393946,N,11634.0522237,E,1,37,0.5,30.180,M,-7.585,M,,*42
$PSAT,FVI,030008.70,39.787323244,116.567537061,22.595,0.649,0.794,1.455,,,0.012,0.505,0.17,0.50,0.01,0.01,-0.02,0.01,,,,50N,462970.760,4404242.044,37,00,1,0,,*39
$GPGST,030008.70,2.000,0.807,0.633,73.453,0.649,0.794,1.455*62
$GPGGA,030008.80,3947.2393912,N,11634.0522198,E,1,37,0.5,30.199,M,-7.585,M,,*42
$PSAT,FVI,030008.80,39.787323187,116.567536996,22.614,0.649,0.794,1.455,,,-0.025,0.500,0.13,0.50,-0.01,0.01,0.00,0.02,,,,50N,462970.755,4404242.037,37,00,1,0,,*1B
$GPGST,030008.80,2.000,0.807,0.633,73.453,0.649,0.794,1.455*6D
$GPGGA,030008.90,3947.2393880,N,11634.0522161,E,1,37,0.5,30.215,M,-7.585,M,,*48
$PSAT,FVI,030008.90,39.787323134,116.567536935,22.630,0.649,0.794,1.455,,,-0.061,0.502,0.19,0.50,0.02,-0.01,-0.01,0.02,,,,50N,462970.749,4404242.031,37,00,1,0,,*31
$GPGST,030008.90,2.000,0.807,0.633,73.453,0.649,0.794,1.455*6C
$GPGGA,030009.00,3947.2393845,N,11634.0522123,E,1,37,0.5,30.233,M,-7.585,M,,*4B
$PSAT,FVI,030009.00,39.787323074,116.567536871,22.648,0.642,0.771,1.453,,,-0.037,0.509,0.18,0.51,-0.02,0.01,0.04,0.02,,,,50N,462970.744,4404242.025,37,00,1,0,,*1C
$GPGST,030009.00,2.000,0.780,0.632,75.480,0.642,0.771,1.453*6B
$PSAT,RTKSTAT,AUT,NONE,0,0564,0,(,L1,L2,L2C,L5,G1,G2,B1,B2,B3,B1C,B2A,B2B,B2AB,E1B,E5A,E5B,E5AB,E6,QL1,QL2,QL5,IL5,)(,8,7,6,5,5,4,14,6,14,6,6,7,0,5,5,5,0,0,3,3,0,2,)(,B,A,A,A,A,A,A,A,A,B,A,A,A,A,A,A,B,A,C,A,A,D,),88,0,1.004,027,0*60
$GPGGA,030009.10,3947.2393816,N,11634.0522090,E,1,37,0.5,30.249,M,-7.585,M,,*48
$PSAT,FVI,030009.10,39.787323026,116.567536816,22.664,0.642,0.771,1.453,,,-0.006,0.504,0.18,0.50,0.01,0.00,-0.01,0.01,,,,50N,462970.739,4404242.019,37,00,1,0,,*1A
$GPGST,030009.10,2.000,0.780,0.632,75.480,0.642,0.771,1.453*6A
$GPGGA,030009.20,3947.2393783,N,11634.0522054,E,1,37,0.5,30.266,M,-7.585,M,,*4D
$PSAT,FVI,030009.20,39.787322972,116.567536757,22.681,0.649,0.794,1.455,,,-0.031,0.505,0.13,0.51,0.00,-0.03,-0.01,0.03,,,,50N,462970.734,4404242.013,37,00,1,0,,*32
$GPGST,030009.20,2.000,0.807,0.633,73.459,0.649,0.794,1.455*6C
$GPGGA,030009.30,3947.2393753,N,11634.0522015,E,1,37,0.5,30.286,M,-7.585,M,,*4A
$PSAT,FVI,030009.30,39.787322922,116.567536692,22.701,0.649,0.794,1.455,,,0.031,0.510,0.17,0.51,-0.01,0.02,0.05,0.02,,,,50N,462970.728,4404242.008,37,00,1,0,,*35
$GPGST,030009.30,2.000,0.807,0.633,73.459,0.649,0.794,1.455*6D
$GPGGA,030009.40,3947.2393719,N,11634.0521977,E,1,37,0.5,30.304,M,-7.585,M,,*46
$PSAT,FVI,030009.40,39.787322865,116.567536629,22.719,0.649,0.794,1.455,,,-0.018,0.503,0.16,0.50,0.01,0.01,0.01,0.01,,,,50N,462970.723,4404242.002,37,00,1,0,,*35
$GPGST,030009.40,2.000,0.807,0.633,73.459,0.649,0.794,1.455*6A
$GPGGA,030009.50,3947.2393685,N,11634.0521941,E,1,37,0.5,30.321,M,-7.585,M,,*41
$PSAT,FVI,030009.50,39.787322809,116.567536568,22.736,0.649,0.794,1.455,,,-0.049,0.505,0.17,0.51,0.02,0.02,-0.01,0.03,,,,50N,462970.718,4404241.995,37,00,1,0,,*14
$GPGST,030009.50,2.000,0.807,0.633,73.459,0.649,0.794,1.455*6B
$GPGGA,030009.60,3947.2393652,N,11634.0521899,E,1,37,0.5,30.340,M,-7.585,M,,*4B
$PSAT,FVI,030009.60,39.787322754,116.567536499,22.755,0.642,0.771,1.453,,,-0.049,0.502,0.14,0.50,0.01,0.01,-0.01,0.02,,,,50N,462970.712,4404241.989,37,00,1,0,,*1F
$GPGST,030009.60,2.000,0.780,0.632,75.487,0.642,0.771,1.453*6A
$GPGGA,030009.70,3947.2393619,N,11634.0521853,E,1,37,0.5,30.360,M,-7.585,M,,*41
$PSAT,FVI,030009.70,39.787322699,116.567536422,22.775,0.642,0.771,1.453,,,-0.037,0.508,0.16,0.51,-0.00,0.01,0.03,0.01,,,,50N,462970.705,4404241.983,37,00,1,0,,*10
$GPGST,030009.70,2.000,0.780,0.632,75.487,0.642,0.771,1.453*6B
$GPGGA,030009.80,3947.2393587,N,11634.0521811,E,1,37,0.5,30.379,M,-7.585,M,,*44
$PSAT,FVI,030009.80,39.787322645,116.567536352,22.794,0.649,0.794,1.455,,,-0.018,0.507,0.16,0.51,0.03,0.04,0.01,0.05,,,,50N,462970.699,4404241.977,37,00,1,0,,*37
$GPGST,030009.80,2.000,0.807,0.633,73.464,0.649,0.794,1.455*68
$GPGGA,030009.90,3947.2393556,N,11634.0521778,E,1,37,0.5,30.395,M,-7.585,M,,*4B
$PSAT,FVI,030009.90,39.787322594,116.567536296,22.810,0.649,0.794,1.455,,,-0.012,0.508,0.18,0.51,0.01,0.00,-0.03,0.01,,,,50N,462970.694,4404241.972,37,00,1,0,,*1D
$GPGST,030009.90,2.000,0.807,0.633,73.464,0.649,0.794,1.455*69
$GPGGA,030010.00,3947.2393524,N,11634.0521733,E,1,37,0.5,30.411,M,-7.585,M,,*4B
$PSAT,FVI,030010.00,39.787322539,116.567536222,22.826,0.649,0.794,1.455,,,-0.025,0.520,0.18,0.52,-0.00,0.01,-0.09,0.01,,,,50N,462970.688,4404241.966,37,00,1,0,,*33
$GPGST,030010.00,2.000,0.807,0.633,73.466,0.649,0.794,1.455*6A
$PSAT,RTKSTAT,AUT,NONE,0,0564,0,(,L1,L2,L2C,L5,G1,G2,B1,B2,B3,B1C,B2A,B2B,B2AB,E1B,E5A,E5B,E5AB,E6,QL1,QL2,QL5,IL5,)(,8,7,6,5,5,4,14,6,13,6,6,7,0,5,5,5,0,0,3,3,0,2,)(,B,A,A,A,A,A,A,A,A,B,A,A,A,A,A,A,B,A,C,A,A,D,),91,0,1.026,027,0*6F
$GPGGA,030010.10,3947.2393489,N,11634.0521689,E,1,37,0.5,30.431,M,-7.585,M,,*4E
$PSAT,FVI,030010.10,39.787322482,116.567536148,22.846,0.649,0.794,1.455,,,-0.006,0.506,0.12,0.51,0.02,0.00,-0.03,0.02,,,,50N,462970.682,4404241.959,37,00,1,0,,*17
$GPGST,030010.10,2.000,0.807,0.633,73.466,0.649,0.794,1.455*6B
$GPGGA,030010.20,3947.2393459,N,11634.0521644,E,1,37,0.5,30.450,M,-7.585,M,,*46
$PSAT,FVI,030010.20,39.787322431,116.567536073,22.865,0.649,0.794,1.455,,,-0.025,0.502,0.13,0.50,-0.01,-0.02,0.00,0.02,,,,50N,462970.675,4404241.954,37,00,1,0,,*3B
$GPGST,030010.20,2.000,0.807,0.633,73.468,0.649,0.794,1.455*66
$GPGGA,030010.30,3947.2393426,N,11634.0521606,E,1,37,0.5,30.468,M,-7.585,M,,*42
$PSAT,FVI,030010.30,39.787322377,116.567536009,22.883,0.649,0.794,1.455,,,-0.012,0.504,0.17,0.50,-0.02,0.03,-0.00,0.03,,,,50N,462970.670,4404241.948,37,00,1,0,,*37
$GPGST,030010.30,2.000,0.807,0.633,73.468,0.649,0.794,1.455*67
$GPGGA,030010.40,3947.2393392,N,11634.0521565,E,1,37,0.5,30.485,M,-7.585,M,,*48
$PSAT,FVI,030010.40,39.787322321,116.567535942,22.900,0.649,0.794,1.455,,,-0.043,0.504,0.17,0.50,-0.00,-0.01,0.01,0.01,,,,50N,462970.664,4404241.942,37,00,1,0,,*34
$GPGST,030010.40,2.000,0.807,0.633,73.470,0.649,0.794,1.455*69
$GPGGA,030010.50,3947.2393362,N,11634.0521518,E,1,37,0.5,30.502,M,-7.585,M,,*42
$PSAT,FVI,030010.50,39.787322270,116.567535863,22.917,0.649,0.794,1.455,,,-0.037,0.504,0.15,0.50,-0.00,0.00,0.00,0.00,,,,50N,462970.657,4404241.936,37,00,1,0,,*1A
$GPGST,030010.50,2.000,0.807,0.633,73.470,0.649,0.794,1.455*68
$GPGGA,030010.60,3947.2393332,N,11634.0521479,E,1,37,0.5,30.521,M,-7.585,M,,*43
$PSAT,FVI,030010.60,39.787322220,116.567535798,22.936,0.649,0.794,1.455,,,-0.018,0.504,0.16,0.50,-0.00,-0.00,0.01,0.01,,,,50N,462970.652,4404241.930,37,00,1,0,,*34
$GPGST,030010.60,2.000,0.807,0.633,73.470,0.649,0.794,1.455*6B
$GPGGA,030010.70,3947.2393296,N,11634.0521434,E,1,37,0.5,30.539,M,-7.585,M,,*4D
$PSAT,FVI,030010.70,39.787322161,116.567535723,22.954,0.649,0.794,1.455,,,0.006,0.509,0.15,0.51,0.04,0.00,-0.02,0.04,,,,50N,462970.645,4404241.924,37,00,1,0,,*36
$GPGST,030010.70,2.000,0.807,0.633,73.470,0.649,0.794,1.455*6A
$GPGGA,030010.80,3947.2393268,N,11634.0521387,E,1,37,0.5,30.559,M,-7.585,M,,*4A
$PSAT,FVI,030010.80,39.787322113,116.567535645,22.974,0.649,0.794,1.455,,,-0.006,0.501,0.18,0.50,0.00,-0.02,-0.00,0.02,,,,50N,462970.638,4404241.919,37,00,1,0,,*3D
$GPGST,030010.80,2.000,0.807,0.633,73.470,0.649,0.794,1.455*65
$GPGGA,030010.90,3947.2393231,N,11634.0521347,E,1,37,0.5,30.577,M,-7.585,M,,*47
$PSAT,FVI,030010.90,39.787322052,116.567535578,22.992,0.649,0.794,1.455,,,-0.037,0.504,0.14,0.50,-0.01,-0.00,0.01,0.01,,,,50N,462970.633,4404241.912,37,00,1,0,,*37
$GPGST,030010.90,2.000,0.807,0.633,73.470,0.649,0.794,1.455*64
$GPGGA,030011.00,3947.2393200,N,11634.0521301,E,1,37,0.5,30.596,M,-7.585,M,,*40
$PSAT,FVI,030011.00,39.787322001,116.567535502,23.011,0.649,0.794,1.455,,,-0.043,0.514,0.18,0.51,-0.01,0.00,0.05,0.01,,,,50N,462970.626,4404241.906,37,00,1,0,,*10
$GPGST,030011.00,2.000,0.807,0.633,73.470,0.649,0.794,1.455*6C
$PSAT,RTKSTAT,AUT,NONE,0,0564,0,(,L1,L2,L2C,L5,G1,G2,B1,B2,B3,B1C,B2A,B2B,B2AB,E1B,E5A,E5B,E5AB,E6,QL1,QL2,QL5,IL5,)(,8,7,6,5,5,4,14,6,12,6,6,7,0,5,5,5,0,0,3,3,0,2,)(,B,A,A,A,A,A,A,A,A,B,A,A,A,A,A,A,B,A,C,A,A,D,),95,0,1.026,027,0*6A
$GPGGA,030011.10,3947.2393168,N,11634.0521262,E,1,37,0.5,30.614,M,-7.585,M,,*41
$PSAT,FVI,030011.10,39.787321947,116.567535436,23.029,0.649,0.794,1.455,,,-0.049,0.504,0.14,0.50,-0.02,0.00,0.01,0.02,,,,50N,462970.620,4404241.900,37,00,1,0,,*16
$GPGST,030011.10,2.000,0.807,0.633,73.470,0.649,0.794,1.455*6D
$GPGGA,030011.20,3947.2393134,N,11634.0521216,E,1,37,0.5,30.632,M,-7.585,M,,*4C
$PSAT,FVI,030011.20,39.787321890,116.567535359,23.047,0.649,0.794,1.455,,,-0.049,0.502,0.17,0.50,0.02,0.02,0.00,0.03,,,,50N,462970.614,4404241.894,37,00,1,0,,*39
$GPGST,030011.20,2.000,0.807,0.633,73.470,0.649,0.794,1.455*6E
$GPGGA,030011.30,3947.2393105,N,11634.0521169,E,1,37,0.5,30.651,M,-7.585,M,,*41
$PSAT,FVI,030011.30,39.787321841,116.567535281,23.066,0.649,0.794,1.455,,,0.000,0.502,0.17,0.50,-0.01,-0.01,-0.01,0.02,,,,50N,462970.607,4404241.889,37,00,1,0,,*30
$GPGST,030011.30,2.000,0.807,0.633,73.470,0.649,0.794,1.455*6F
$GPGGA,030011.40,3947.2393074,N,11634.0521126,E,1,37,0.5,30.668,M,-7.585,M,,*40
$PSAT,FVI,030011.40,39.787321790,116.567535210,23.083,0.642,0.771,1.453,,,-0.043,0.508,0.16,0.51,0.01,-0.01,-0.04,0.02,,,,50N,462970.601,4404241.883,37,00,1,0,,*35
$GPGST,030011.40,2.000,0.779,0.632,75.507,0.642,0.771,1.453*6E
$GPGGA,030011.50,3947.2393043,N,11634.0521077,E,1,37,0.5,30.688,M,-7.585,M,,*4E
$PSAT,FVI,030011.50,39.787321738,116.567535128,23.103,0.642,0.771,1.453,,,-0.006,0.502,0.18,0.50,-0.00,0.03,-0.00,0.03,,,,50N,462970.594,4404241.877,37,00,1,0,,*31
$GPGST,030011.50,2.000,0.779,0.632,75.507,0.642,0.771,1.453*6F
$GPGGA,030011.60,3947.2393011,N,11634.0521031,E,1,37,0.5,30.705,M,-7.585,M,,*4C
$PSAT,FVI,030011.60,39.787321685,116.567535051,23.120,0.649,0.794,1.455,,,-0.043,0.505,0.20,0.50,-0.02,0.03,0.01,0.03,,,,50N,462970.587,4404241.871,37,00,1,0,,*1A
$GPGST,030011.60,2.000,0.807,0.633,73.481,0.649,0.794,1.455*64
$GPGGA,030011.70,3947.2392979,N,11634.0520983,E,1,37,0.5,30.723,M,-7.585,M,,*4E
$PSAT,FVI,030011.70,39.787321632,116.567534972,23.138,0.649,0.794,1.455,,,-0.037,0.503,0.18,0.50,-0.02,-0.00,0.01,0.02,,,,50N,462970.580,4404241.866,37,00,1,0,,*37
$GPGST,030011.70,2.000,0.807,0.633,73.481,0.649,0.794,1.455*65
$GPGGA,030011.80,3947.2392952,N,11634.0520938,E,1,37,0.5,30.741,M,-7.585,M,,*4C
$PSAT,FVI,030011.80,39.787321587,116.567534897,23.156,0.649,0.794,1.455,,,-0.049,0.504,0.15,0.50,0.03,0.01,-0.01,0.04,,,,50N,462970.574,4404241.861,37,00,1,0,,*13
$GPGST,030011.80,2.000,0.807,0.633,73.481,0.649,0.794,1.455*6A
$GPGGA,030011.90,3947.2392923,N,11634.0520891,E,1,37,0.5,30.760,M,-7.585,M,,*4A
$PSAT,FVI,030011.90,39.787321538,116.567534818,23.175,0.649,0.794,1.455,,,0.000,0.504,0.25,0.50,-0.01,-0.00,0.01,0.01,,,,50N,462970.567,4404241.855,37,00,1,0,,*1D
$GPGST,030011.90,2.000,0.807,0.633,73.481,0.649,0.794,1.455*6B
$GPGGA,030012.00,3947.2392893,N,11634.0520847,E,1,37,0.5,30.777,M,-7.585,M,,*47
$PSAT,FVI,030012.00,39.787321489,116.567534745,23.192,0.642,0.771,1.453,,,-0.043,0.505,0.18,0.51,0.01,0.01,-0.02,0.02,,,,50N,462970.561,4404241.850,37,00,1,0,,*1F
$GPGST,030012.00,2.000,0.779,0.632,75.513,0.642,0.771,1.453*6C
$PSAT,RTKSTAT,AUT,NONE,0,0564,0,(,L1,L2,L2C,L5,G1,G2,B1,B2,B3,B1C,B2A,B2B,B2AB,E1B,E5A,E5B,E5AB,E6,QL1,QL2,QL5,IL5,)(,8,7,6,5,5,4,14,6,12,6,6,7,0,5,5,5,0,0,3,3,0,2,)(,B,A,A,A,A,A,A,A,A,B,A,A,A,A,A,A,B,A,C,A,A,D,),99,0,1.004,027,0*66
$GPGGA,030012.10,3947.2392864,N,11634.0520801,E,1,37,0.5,30.797,M,-7.585,M,,*42
$PSAT,FVI,030012.10,39.787321440,116.567534669,23.212,0.642,0.771,1.453,,,0.006,0.506,0.15,0.51,-0.02,0.00,0.03,0.02,,,,50N,462970.554,4404241.844,37,00,1,0,,*3D
$GPGST,030012.10,2.000,0.779,0.632,75.513,0.642,0.771,1.453*6D
$GPGGA,030012.20,3947.2392832,N,11634.0520749,E,1,37,0.5,30.815,M,-7.585,M,,*44
$PSAT,FVI,030012.20,39.787321387,116.567534582,23.230,0.649,0.794,1.455,,,-0.037,0.507,0.18,0.51,0.01,0.03,0.02,0.03,,,,50N,462970.547,4404241.838,37,00,1,0,,*35
$GPGST,030012.20,2.000,0.807,0.633,73.487,0.649,0.794,1.455*65
$GPGGA,030012.30,3947.2392803,N,11634.0520704,E,1,37,0.5,30.833,M,-7.585,M,,*4A
$PSAT,FVI,030012.30,39.787321338,116.567534506,23.248,0.649,0.794,1.455,,,-0.043,0.501,0.13,0.50,0.01,-0.00,0.00,0.01,,,,50N,462970.540,4404241.833,37,00,1,0,,*1E
$GPGST,030012.30,2.000,0.807,0.633,73.487,0.649,0.794,1.455*64
$GPGGA,030012.40,3947.2392772,N,11634.0520661,E,1,37,0.5,30.851,M,-7.585,M,,*42
$PSAT,FVI,030012.40,39.787321287,116.567534435,23.266,0.649,0.794,1.455,,,-0.043,0.505,0.18,0.51,0.02,-0.00,-0.03,0.02,,,,50N,462970.534,4404241.827,37,00,1,0,,*37
$GPGST,030012.40,2.000,0.807,0.633,73.487,0.649,0.794,1.455*63
$GPGGA,030012.50,3947.2392746,N,11634.0520614,E,1,37,0.5,30.868,M,-7.585,M,,*4C
$PSAT,FVI,030012.50,39.787321243,116.567534357,23.283,0.649,0.794,1.455,,,-0.061,0.512,0.18,0.51,0.03,-0.01,-0.05,0.03,,,,50N,462970.528,4404241.823,37,00,1,0,,*3E
$GPGST,030012.50,2.000,0.807,0.633,73.487,0.649,0.794,1.455*62
$GPGGA,030012.60,3947.2392716,N,11634.0520563,E,1,37,0.5,30.887,M,-7.585,M,,*48
$PSAT,FVI,030012.60,39.787321194,116.567534272,23.302,0.642,0.771,1.453,,,-0.025,0.504,0.17,0.50,0.01,0.01,-0.01,0.02,,,,50N,462970.520,4404241.817,37,00,1,0,,*10
$GPGST,030012.60,2.000,0.779,0.632,75.520,0.642,0.771,1.453*6A
$GPGGA,030012.70,3947.2392688,N,11634.0520517,E,1,37,0.5,30.906,M,-7.585,M,,*44
$PSAT,FVI,030012.70,39.787321147,116.567534195,23.321,0.642,0.771,1.453,,,-0.055,0.507,0.17,0.51,0.00,0.01,0.03,0.01,,,,50N,462970.514,4404241.812,37,00,1,0,,*3E
$GPGST,030012.70,2.000,0.779,0.632,75.520,0.642,0.771,1.453*6B
$GPGGA,030012.80,3947.2392656,N,11634.0520469,E,1,37,0.5,30.925,M,-7.585,M,,*41
$PSAT,FVI,030012.80,39.787321094,116.567534115,23.340,0.649,0.794,1.455,,,-0.025,0.505,0.18,0.51,-0.00,-0.02,0.02,0.02,,,,50N,462970.507,4404241.806,37,00,1,0,,*3B
$GPGST,030012.80,2.000,0.807,0.633,73.493,0.649,0.794,1.455*6A
$GPGGA,030012.90,3947.2392627,N,11634.0520425,E,1,37,0.5,30.940,M,-7.585,M,,*4D
$PSAT,FVI,030012.90,39.787321045,116.567534041,23.355,0.649,0.794,1.455,,,0.000,0.504,0.15,0.50,-0.01,-0.02,0.01,0.02,,,,50N,462970.500,4404241.801,37,00,1,0,,*17
$GPGST,030012.90,2.000,0.807,0.633,73.493,0.649,0.794,1.455*6B
$GPGGA,030013.00,3947.2392595,N,11634.0520374,E,1,37,0.5,30.958,M,-7.585,M,,*45
$PSAT,FVI,030013.00,39.787320992,116.567533957,23.373,0.649,0.794,1.455,,,-0.018,0.506,0.15,0.51,0.01,-0.01,-0.03,0.02,,,,50N,462970.493,4404241.795,37,00,1,0,,*3F
$GPGST,030013.00,2.000,0.807,0.633,73.493,0.649,0.794,1.455*63
$PSAT,RTKSTAT,AUT,NONE,0,0564,0,(,L1,L2,L2C,L5,G1,G2,B1,B2,B3,B1C,B2A,B2B,B2AB,E1B,E5A,E5B,E5AB,E6,QL1,QL2,QL5,IL5,)(,8,7,6,5,5,4,14,6,13,6,6,7,0,5,5,5,0,0,3,3,0,2,)(,B,A,A,A,A,A,A,A,A,B,A,A,A,A,A,A,B,A,C,A,A,D,),103,0,1.026,027,0*55
$GPGGA,030013.10,3947.2392567,N,11634.0520320,E,1,37,0.5,30.977,M,-7.585,M,,*45
$PSAT,FVI,030013.10,39.787320944,116.567533867,23.392,0.649,0.794,1.455,,,-0.055,0.504,0.17,0.50,0.03,-0.01,-0.00,0.03,,,,50N,462970.485,4404241.790,37,00,1,0,,*32
$GPGST,030013.10,2.000,0.807,0.633,73.493,0.649,0.794,1.455*62
$GPGGA,030013.20,3947.2392535,N,11634.0520271,E,1,37,0.5,30.994,M,-7.585,M,,*49
$PSAT,FVI,030013.20,39.787320892,116.567533786,23.409,0.642,0.771,1.453,,,-0.049,0.505,0.17,0.51,-0.02,0.01,0.02,0.02,,,,50N,462970.479,4404241.784,37,00,1,0,,*1C
$GPGST,030013.20,2.000,0.779,0.632,75.526,0.642,0.771,1.453*69
$GPGGA,030013.30,3947.2392508,N,11634.0520222,E,1,37,0.5,31.011,M,-7.585,M,,*45
$PSAT,FVI,030013.30,39.787320847,116.567533703,23.426,0.642,0.771,1.453,,,-0.018,0.501,0.15,0.50,-0.02,-0.01,-0.00,0.02,,,,50N,462970.471,4404241.779,37,00,1,0,,*1E
$GPGST,030013.30,2.000,0.779,0.632,75.526,0.642,0.771,1.453*68
$GPGGA,030013.40,3947.2392482,N,11634.0520173,E,1,37,0.5,31.029,M,-7.585,M,,*4D
$PSAT,FVI,030013.40,39.787320803,116.567533621,23.444,0.642,0.771,1.453,,,0.025,0.506,0.17,0.51,0.02,0.01,0.02,0.03,,,,50N,462970.464,4404241.774,37,00,1,0,,*1C
$GPGST,030013.40,2.000,0.779,0.632,75.526,0.642,0.771,1.453*6F
$GPGGA,030013.50,3947.2392449,N,11634.0520119,E,1,37,0.5,31.044,M,-7.585,M,,*4C
$PSAT,FVI,030013.50,39.787320749,116.567533531,23.459,0.649,0.794,1.455,,,-0.037,0.508,0.15,0.51,0.00,0.00,-0.02,0.00,,,,50N,462970.457,4404241.768,37,00,1,0,,*16
$GPGST,030013.50,2.000,0.807,0.633,73.499,0.649,0.794,1.455*6C
$GPGGA,030013.60,3947.2392425,N,11634.0520069,E,1,37,0.5,31.060,M,-7.585,M,,*45
$PSAT,FVI,030013.60,39.787320709,116.567533448,23.475,0.649,0.794,1.455,,,0.006,0.505,0.21,0.50,0.00,0.00,-0.01,0.00,,,,50N,462970.449,4404241.764,37,00,1,0,,*34
$GPGST,030013.60,2.000,0.807,0.633,73.499,0.649,0.794,1.455*6F
$GPGGA,030013.70,3947.2392395,N,11634.0520018,E,1,37,0.5,31.077,M,-7.585,M,,*48
$PSAT,FVI,030013.70,39.787320658,116.567533363,23.492,0.649,0.794,1.455,,,-0.012,0.504,0.21,0.50,0.00,-0.01,0.02,0.01,,,,50N,462970.442,4404241.758,37,00,1,0,,*19
$GPGST,030013.70,2.000,0.807,0.633,73.499,0.649,0.794,1.455*6E
$GPGGA,030013.80,3947.2392369,N,11634.0519965,E,1,37,0.5,31.095,M,-7.585,M,,*41
$PSAT,FVI,030013.80,39.787320615,116.567533275,23.510,0.649,0.794,1.455,,,-0.031,0.514,0.17,0.51,-0.02,-0.00,0.06,0.02,,,,50N,462970.435,4404241.753,37,00,1,0,,*34
$GPGST,030013.80,2.000,0.807,0.633,73.502,0.649,0.794,1.455*62
$GPGGA,030013.90,3947.2392340,N,11634.0519916,E,1,37,0.5,31.110,M,-7.585,M,,*43
$PSAT,FVI,030013.90,39.787320567,116.567533193,23.525,0.649,0.794,1.455,,,-0.043,0.502,0.18,0.50,0.01,0.00,-0.00,0.01,,,,50N,462970.428,4404241.748,37,00,1,0,,*1F
$GPGST,030013.90,2.000,0.807,0.633,73.502,0.649,0.794,1.455*63
$GPGGA,030014.00,3947.2392310,N,11634.0519865,E,1,37,0.5,31.128,M,-7.585,M,,*46
$PSAT,FVI,030014.00,39.787320517,116.567533108,23.543,0.649,0.794,1.455,,,-0.012,0.506,0.17,0.51,-0.01,-0.01,0.03,0.02,,,,50N,462970.420,4404241.743,37,00,1,0,,*35
$GPGST,030014.00,2.000,0.807,0.633,73.504,0.649,0.794,1.455*6B
$PSAT,RTKSTAT,AUT,NONE,0,0564,0,(,L1,L2,L2C,L5,G1,G2,B1,B2,B3,B1C,B2A,B2B,B2AB,E1B,E5A,E5B,E5AB,E6,QL1,QL2,QL5,IL5,)(,8,7,6,5,5,4,14,6,12,6,6,7,0,5,5,5,0,0,3,3,0,2,)(,B,A,A,A,A,A,A,A,A,B,A,A,A,A,A,A,B,A,C,A,A,D,),111,0,1.026,027,0*57
$GPGGA,030014.10,3947.2392282,N,11634.0519813,E,1,37,0.5,31.145,M,-7.585,M,,*47
$PSAT,FVI,030014.10,39.787320470,116.567533022,23.560,0.649,0.794,1.455,,,0.000,0.505,0.17,0.50,0.02,-0.02,0.01,0.03,,,,50N,462970.413,4404241.737,37,00,1,0,,*3D
$GPGST,030014.10,2.000,0.807,0.633,73.504,0.649,0.794,1.455*6A
$GPGGA,030014.20,3947.2392257,N,11634.0519760,E,1,37,0.5,31.160,M,-7.585,M,,*40
$PSAT,FVI,030014.20,39.787320428,116.567532934,23.575,0.649,0.794,1.455,,,-0.043,0.503,0.18,0.50,0.01,-0.00,0.01,0.01,,,,50N,462970.405,4404241.733,37,00,1,0,,*1B
$GPGST,030014.20,2.000,0.807,0.633,73.504,0.649,0.794,1.455*69
$GPGGA,030014.30,3947.2392227,N,11634.0519714,E,1,37,0.5,31.174,M,-7.585,M,,*40
$PSAT,FVI,030014.30,39.787320378,116.567532857,23.589,0.649,0.794,1.455,,,0.006,0.514,0.21,0.51,-0.01,-0.02,-0.06,0.02,,,,50N,462970.399,4404241.727,37,00,1,0,,*3F
$GPGST,030014.30,2.000,0.807,0.633,73.504,0.649,0.794,1.455*68
$GPGGA,030014.40,3947.2392198,N,11634.0519665,E,1,37,0.5,31.193,M,-7.585,M,,*4E
$PSAT,FVI,030014.40,39.787320331,116.567532775,23.608,0.642,0.771,1.453,,,-0.043,0.502,0.15,0.50,-0.00,-0.01,0.00,0.01,,,,50N,462970.392,4404241.722,37,00,1,0,,*3F
$GPGST,030014.40,2.000,0.779,0.632,75.540,0.642,0.771,1.453*68
$GPGGA,030014.50,3947.2392171,N,11634.0519610,E,1,37,0.5,31.210,M,-7.585,M,,*42
$PSAT,FVI,030014.50,39.787320284,116.567532683,23.625,0.642,0.771,1.453,,,-0.080,0.501,0.17,0.50,-0.00,0.01,0.01,0.01,,,,50N,462970.384,4404241.717,37,00,1,0,,*15
$GPGST,030014.50,2.000,0.779,0.632,75.540,0.642,0.771,1.453*69
$GPGGA,030014.60,3947.2392137,N,11634.0519567,E,1,36,0.5,31.227,M,-7.585,M,,*45
$PSAT,FVI,030014.60,39.787320228,116.567532612,23.642,0.649,0.794,1.455,,,-0.055,0.511,0.22,0.51,-0.03,0.01,0.04,0.03,,,,50N,462970.378,4404241.711,36,00,1,0,,*11
$GPGST,030014.60,2.000,0.807,0.633,73.510,0.649,0.794,1.455*68
$GPGGA,030014.70,3947.2392109,N,11634.0519519,E,1,36,0.5,31.243,M,-7.585,M,,*42
$PSAT,FVI,030014.70,39.787320182,116.567532531,23.658,0.649,0.794,1.455,,,-0.055,0.503,0.17,0.50,0.01,0.00,-0.00,0.01,,,,50N,462970.371,4404241.706,36,00,1,0,,*14
$GPGST,030014.70,2.000,0.807,0.633,73.510,0.649,0.794,1.455*69
$GPGGA,030014.80,3947.2392079,N,11634.0519469,E,1,36,0.5,31.256,M,-7.585,M,,*49
$PSAT,FVI,030014.80,39.787320132,116.567532448,23.671,0.649,0.794,1.455,,,-0.055,0.510,0.17,0.51,0.01,-0.00,-0.04,0.01,,,,50N,462970.364,4404241.700,36,00,1,0,,*3C
$GPGST,030014.80,2.000,0.807,0.633,73.512,0.649,0.794,1.455*64
$GPGGA,030014.90,3947.2392052,N,11634.0519418,E,1,36,0.5,31.276,M,-7.585,M,,*45
$PSAT,FVI,030014.90,39.787320087,116.567532364,23.691,0.649,0.794,1.455,,,0.006,0.507,0.19,0.51,-0.00,0.00,0.02,0.00,,,,50N,462970.356,4404241.695,36,00,1,0,,*31
$GPGST,030014.90,2.000,0.807,0.633,73.512,0.649,0.794,1.455*65
$GPGGA,030015.00,3947.2392022,N,11634.0519367,E,1,36,0.5,31.291,M,-7.585,M,,*4C
$PSAT,FVI,030015.00,39.787320037,116.567532278,23.706,0.649,0.794,1.455,,,0.000,0.505,0.18,0.51,-0.00,0.00,0.01,0.00,,,,50N,462970.349,4404241.690,36,00,1,0,,*3C
$GPGST,030015.00,2.000,0.807,0.633,73.514,0.649,0.794,1.455*6B
$PSAT,RTKSTAT,AUT,NONE,0,0564,0,(,L1,L2,L2C,L5,G1,G2,B1,B2,B3,B1C,B2A,B2B,B2AB,E1B,E5A,E5B,E5AB,E6,QL1,QL2,QL5,IL5,)(,8,7,6,5,5,4,13,6,12,6,6,7,0,5,5,5,0,0,3,3,0,2,)(,A,A,A,A,A,A,A,A,A,B,A,A,A,A,A,A,B,A,C,A,A,D,),118,0,1.026,007,0*58
$GPGGA,030015.10,3947.2391994,N,11634.0519317,E,1,36,0.5,31.308,M,-7.585,M,,*4C
$PSAT,FVI,030015.10,39.787319990,116.567532194,23.723,0.649,0.794,1.455,,,0.000,0.501,0.18,0.50,0.01,0.01,-0.00,0.02,,,,50N,462970.342,4404241.684,36,00,1,0,,*3D
$GPGST,030015.10,2.000,0.807,0.633,73.514,0.649,0.794,1.455*6A
$GPGGA,030015.20,3947.2391968,N,11634.0519274,E,1,36,0.5,31.325,M,-7.585,M,,*47
$PSAT,FVI,030015.20,39.787319946,116.567532124,23.740,0.649,0.794,1.455,,,-0.043,0.502,0.21,0.50,0.02,0.00,-0.00,0.02,,,,50N,462970.336,4404241.680,36,00,1,0,,*1D
$GPGST,030015.20,2.000,0.807,0.633,73.516,0.649,0.794,1.455*6B
$GPGGA,030015.30,3947.2391936,N,11634.0519226,E,1,36,0.5,31.342,M,-7.585,M,,*4B
$PSAT,FVI,030015.30,39.787319893,116.567532043,23.757,0.649,0.794,1.455,,,-0.068,0.504,0.18,0.50,0.03,-0.01,-0.01,0.03,,,,50N,462970.329,4404241.674,36,00,1,0,,*3E
$GPGST,030015.30,2.000,0.807,0.633,73.516,0.649,0.794,1.455*6A
$GPGGA,030015.40,3947.2391907,N,11634.0519174,E,1,37,0.5,31.358,M,-7.585,M,,*40
$PSAT,FVI,030015.40,39.787319846,116.567531956,23.773,0.649,0.794,1.455,,,-0.012,0.504,0.15,0.50,0.00,0.00,-0.01,0.00,,,,50N,462970.321,4404241.668,37,00,1,0,,*11
$GPGST,030015.40,2.000,0.807,0.633,73.516,0.649,0.794,1.455*6D
$GPGGA,030015.50,3947.2391883,N,11634.0519132,E,1,37,0.5,31.377,M,-7.585,M,,*43
$PSAT,FVI,030015.50,39.787319805,116.567531886,23.792,0.649,0.794,1.455,,,-0.043,0.507,0.15,0.51,0.02,-0.01,0.03,0.03,,,,50N,462970.315,4404241.664,37,00,1,0,,*1B
$GPGST,030015.50,2.000,0.807,0.633,73.516,0.649,0.794,1.455*6C
$GPGGA,030015.60,3947.2391853,N,11634.0519078,E,1,36,0.5,31.390,M,-7.585,M,,*4A
$PSAT,FVI,030015.60,39.787319755,116.567531797,23.805,0.642,0.771,1.453,,,0.000,0.504,0.15,0.50,-0.00,-0.00,0.01,0.00,,,,50N,462970.308,4404241.658,36,00,1,0,,*1F
$GPGST,030015.60,2.000,0.779,0.632,75.553,0.642,0.771,1.453*69
$GPGGA,030015.70,3947.2391827,N,11634.0519031,E,1,36,0.5,31.409,M,-7.585,M,,*42
$PSAT,FVI,030015.70,39.787319711,116.567531718,23.824,0.642,0.771,1.453,,,-0.031,0.504,0.10,0.50,0.01,-0.01,-0.02,0.01,,,,50N,462970.301,4404241.654,36,00,1,0,,*37
$GPGST,030015.70,2.000,0.779,0.632,75.553,0.642,0.771,1.453*68
$GPGGA,030015.80,3947.2391800,N,11634.0518980,E,1,36,0.5,31.426,M,-7.585,M,,*47
$PSAT,FVI,030015.80,39.787319667,116.567531634,23.841,0.649,0.794,1.455,,,0.012,0.510,0.17,0.51,0.01,-0.03,0.03,0.03,,,,50N,462970.294,4404241.649,36,00,1,0,,*30
$GPGST,030015.80,2.000,0.807,0.633,73.521,0.649,0.794,1.455*65
$GPGGA,030015.90,3947.2391771,N,11634.0518930,E,1,36,0.5,31.442,M,-7.585,M,,*46
$PSAT,FVI,030015.90,39.787319619,116.567531549,23.857,0.649,0.794,1.455,,,-0.006,0.504,0.19,0.50,-0.01,0.02,0.01,0.02,,,,50N,462970.286,4404241.643,36,00,1,0,,*1F
$GPGST,030015.90,2.000,0.807,0.633,73.521,0.649,0.794,1.455*64
$GPGGA,030016.00,3947.2391744,N,11634.0518881,E,1,36,0.5,31.458,M,-7.585,M,,*4A
$PSAT,FVI,030016.00,39.787319574,116.567531469,23.873,0.649,0.794,1.455,,,-0.068,0.505,0.16,0.51,0.01,0.01,-0.02,0.01,,,,50N,462970.279,4404241.639,36,00,1,0,,*11
$GPGST,030016.00,2.000,0.807,0.633,73.521,0.649,0.794,1.455*6E
$PSAT,RTKSTAT,AUT,NONE,0,0564,0,(,L1,L2,L2C,L5,G1,G2,B1,B2,B3,B1C,B2A,B2B,B2AB,E1B,E5A,E5B,E5AB,E6,QL1,QL2,QL5,IL5,)(,8,7,6,5,5,4,13,6,13,6,6,7,0,5,5,5,0,0,3,3,0,2,)(,A,A,A,A,A,A,A,A,A,B,A,A,A,A,A,A,B,A,C,A,A,D,),123,0,1.026,007,0*51
$GPGGA,030016.10,3947.2391719,N,11634.0518830,E,1,36,0.5,31.475,M,-7.585,M,,*46
$PSAT,FVI,030016.10,39.787319532,116.567531384,23.890,0.649,0.794,1.455,,,-0.018,0.502,0.15,0.50,0.01,-0.00,-0.01,0.01,,,,50N,462970.272,4404241.634,36,00,1,0,,*30
$GPGST,030016.10,2.000,0.807,0.633,73.521,0.649,0.794,1.455*6F
$GPGGA,030016.20,3947.2391692,N,11634.0518781,E,1,36,0.5,31.492,M,-7.585,M,,*4B
$PSAT,FVI,030016.20,39.787319486,116.567531301,23.907,0.649,0.794,1.455,,,-0.037,0.507,0.18,0.51,-0.01,-0.01,0.03,0.01,,,,50N,462970.265,4404241.629,36,00,1,0,,*32
$GPGST,030016.20,2.000,0.807,0.633,73.521,0.649,0.794,1.455*6C
$GPGGA,030016.30,3947.2391663,N,11634.0518726,E,1,36,0.5,31.510,M,-7.585,M,,*42
$PSAT,FVI,030016.30,39.787319439,116.567531210,23.925,0.649,0.794,1.455,,,-0.037,0.504,0.18,0.50,0.01,0.01,0.02,0.01,,,,50N,462970.257,4404241.624,36,00,1,0,,*39
$GPGST,030016.30,2.000,0.807,0.633,73.521,0.649,0.794,1.455*6D
$GPGGA,030016.40,3947.2391639,N,11634.0518676,E,1,36,0.5,31.527,M,-7.585,M,,*4A
$PSAT,FVI,030016.40,39.787319398,116.567531126,23.942,0.649,0.794,1.455,,,-0.043,0.504,0.17,0.50,0.00,-0.00,0.01,0.01,,,,50N,462970.250,4404241.619,36,00,1,0,,*1E
$GPGST,030016.40,2.000,0.807,0.633,73.521,0.649,0.794,1.455*6A
$GPGGA,030016.50,3947.2391612,N,11634.0518628,E,1,36,0.5,31.545,M,-7.585,M,,*4D
$PSAT,FVI,030016.50,39.787319353,116.567531046,23.960,0.649,0.794,1.455,,,-0.006,0.513,0.19,0.51,0.01,-0.00,0.06,0.01,,,,50N,462970.243,4404241.614,36,00,1,0,,*1E
$GPGST,030016.50,2.000,0.807,0.633,73.521,0.649,0.794,1.455*6B
$GPGGA,030016.60,3947.2391591,N,11634.0518583,E,1,37,0.5,31.560,M,-7.585,M,,*42
$PSAT,FVI,030016.60,39.787319318,116.567530971,23.975,0.649,0.794,1.455,,,-0.074,0.506,0.23,0.51,-0.01,-0.01,-0.03,0.01,,,,50N,462970.237,4404241.610,37,00,1,0,,*10
$GPGST,030016.60,2.000,0.807,0.633,73.529,0.649,0.794,1.455*60
$GPGGA,030016.70,3947.2391563,N,11634.0518526,E,1,36,0.5,31.576,M,-7.585,M,,*47
$PSAT,FVI,030016.70,39.787319272,116.567530876,23.991,0.649,0.794,1.455,,,-0.055,0.503,0.16,0.50,-0.00,-0.01,-0.01,0.01,,,,50N,462970.229,4404241.605,36,00,1,0,,*18
$GPGST,030016.70,2.000,0.807,0.633,73.529,0.649,0.794,1.455*61
$GPGGA,030016.80,3947.2391537,N,11634.0518478,E,1,36,0.5,31.592,M,-7.585,M,,*49
$PSAT,FVI,030016.80,39.787319228,116.567530796,24.007,0.649,0.794,1.455,,,-0.031,0.508,0.19,0.51,0.00,0.02,-0.03,0.02,,,,50N,462970.222,4404241.600,36,00,1,0,,*13
$GPGST,030016.80,2.000,0.807,0.633,73.531,0.649,0.794,1.455*67
$GPGGA,030016.90,3947.2391508,N,11634.0518431,E,1,36,0.5,31.609,M,-7.585,M,,*48
$PSAT,FVI,030016.90,39.787319180,116.567530718,24.024,0.649,0.794,1.455,,,0.000,0.508,0.19,0.51,0.01,0.00,-0.03,0.01,,,,50N,462970.215,4404241.595,36,00,1,0,,*30
$GPGST,030016.90,2.000,0.807,0.633,73.531,0.649,0.794,1.455*66
$GPGGA,030017.00,3947.2391486,N,11634.0518382,E,1,36,0.5,31.625,M,-7.585,M,,*46
$PSAT,FVI,030017.00,39.787319144,116.567530637,24.040,0.649,0.794,1.455,,,-0.018,0.503,0.17,0.50,0.00,0.01,0.01,0.01,,,,50N,462970.208,4404241.591,36,00,1,0,,*39
$GPGST,030017.00,2.000,0.807,0.633,73.533,0.649,0.794,1.455*6C
$PSAT,RTKSTAT,AUT,NONE,0,0564,0,(,L1,L2,L2C,L5,G1,G2,B1,B2,B3,B1C,B2A,B2B,B2AB,E1B,E5A,E5B,E5AB,E6,QL1,QL2,QL5,IL5,)(,8,7,6,5,5,4,13,6,12,6,6,7,0,5,5,5,0,0,3,3,0,2,)(,A,A,A,A,A,A,A,A,A,B,A,A,A,A,A,A,B,A,C,A,A,D,),127,0,1.026,007,0*54
$GPGGA,030017.10,3947.2391460,N,11634.0518331,E,1,36,0.5,31.640,M,-7.585,M,,*44
$PSAT,FVI,030017.10,39.787319099,116.567530551,24.055,0.649,0.794,1.455,,,-0.025,0.508,0.22,0.51,-0.04,0.01,0.00,0.05,,,,50N,462970.201,4404241.586,36,00,1,0,,*1F
$GPGST,030017.10,2.000,0.807,0.633,73.533,0.649,0.794,1.455*6D
$GPGGA,030017.20,3947.2391438,N,11634.0518285,E,1,37,0.5,31.657,M,-7.585,M,,*43
$PSAT,FVI,030017.20,39.787319063,116.567530475,24.072,0.649,0.794,1.455,,,-0.006,0.500,0.20,0.50,0.00,-0.02,-0.00,0.02,,,,50N,462970.194,4404241.582,37,00,1,0,,*36
$GPGST,030017.20,2.000,0.807,0.633,73.533,0.649,0.794,1.455*6E
$GPGGA,030017.30,3947.2391411,N,11634.0518236,E,1,36,0.5,31.673,M,-7.585,M,,*46
$PSAT,FVI,030017.30,39.787319019,116.567530393,24.088,0.649,0.794,1.455,,,-0.061,0.503,0.18,0.50,-0.00,-0.02,0.01,0.02,,,,50N,462970.187,4404241.577,36,00,1,0,,*31
$GPGST,030017.30,2.000,0.807,0.633,73.533,0.649,0.794,1.455*6F
$GPGGA,030017.40,3947.2391388,N,11634.0518189,E,1,36,0.5,31.686,M,-7.585,M,,*4B
$PSAT,FVI,030017.40,39.787318980,116.567530316,24.101,0.642,0.771,1.453,,,-0.037,0.503,0.18,0.50,-0.02,0.00,-0.01,0.02,,,,50N,462970.180,4404241.573,36,00,1,0,,*35
$GPGST,030017.40,2.000,0.779,0.632,75.573,0.642,0.771,1.453*6B
$GPGGA,030017.50,3947.2391363,N,11634.0518145,E,1,36,0.5,31.702,M,-7.585,M,,*42
$PSAT,FVI,030017.50,39.787318938,116.567530242,24.117,0.642,0.771,1.453,,,-0.061,0.506,0.21,0.51,0.02,-0.01,-0.02,0.03,,,,50N,462970.174,4404241.569,36,00,1,0,,*3E
$GPGST,030017.50,2.000,0.779,0.632,75.573,0.642,0.771,1.453*6A
$GPGGA,030017.60,3947.2391341,N,11634.0518097,E,1,36,0.5,31.717,M,-7.585,M,,*4B
$PSAT,FVI,030017.60,39.787318901,116.567530162,24.132,0.642,0.771,1.453,,,-0.055,0.506,0.20,0.51,0.01,0.00,-0.03,0.01,,,,50N,462970.167,4404241.564,36,00,1,0,,*14
$GPGST,030017.60,2.000,0.779,0.632,75.575,0.642,0.771,1.453*6F
$GPGGA,030017.70,3947.2391316,N,11634.0518055,E,1,36,0.5,31.733,M,-7.585,M,,*40
$PSAT,FVI,030017.70,39.787318860,116.567530092,24.148,0.642,0.771,1.453,,,-0.037,0.502,0.18,0.50,-0.01,0.00,-0.00,0.01,,,,50N,462970.161,4404241.560,36,00,1,0,,*36
$GPGST,030017.70,2.000,0.779,0.632,75.575,0.642,0.771,1.453*6E
$GPGGA,030017.80,3947.2391289,N,11634.0518016,E,1,37,0.5,31.745,M,-7.585,M,,*4F
$PSAT,FVI,030017.80,39.787318815,116.567530026,24.160,0.642,0.771,1.453,,,-0.018,0.503,0.18,0.50,0.01,0.02,0.00,0.03,,,,50N,462970.156,4404241.555,37,00,1,0,,*31
$GPGST,030017.80,2.000,0.779,0.632,75.575,0.642,0.771,1.453*61
$GPGGA,030017.90,3947.2391266,N,11634.0517968,E,1,37,0.5,31.760,M,-7.585,M,,*47
$PSAT,FVI,030017.90,39.787318777,116.567529946,24.175,0.649,0.794,1.454,,,-0.037,0.501,0.18,0.50,-0.00,0.01,-0.00,0.01,,,,50N,462970.149,4404241.551,37,00,1,0,,*3A
$GPGST,030017.90,2.000,0.807,0.633,73.542,0.649,0.794,1.454*62
$GPGGA,030018.00,3947.2391244,N,11634.0517923,E,1,36,0.5,31.775,M,-7.585,M,,*4B
